[
  {
    "id": "1",
    "name": "Sukkubhai Biriyani Multi-Cuisine Restaurant A/C",
    "lat": "12.971414",
    "lng": "80.249468",
    "category": "Restaurant",
    "address": "400 & 401, OMR, Rajiv Gandhi IT Expy, Nehru Nagar, Perungudi",
    "address2": "",
    "city": "Chennai",
    "state": "Tamil Nadu",
    "postal": "600096",
    "phone": "044 2233 0444",
    "hours1": "Mon-Sun 11am-12pm",
    "hours2": "",
    "hours3": "",
    "featured": "",
    "features": ""
  },
  {
    "id": "2",
    "name": "Sukkubhai Biriyani Non A/C",
    "lat": "12.998298",
    "lng": "80.201563",
    "category": "Restaurant",
    "address": "333, MKN Rd,next to Indian Bank, Alandur",
    "address2": "",
    "city": "Chennai",
    "state": "Tamil Nadu",
    "postal": "600016",
    "phone": "044 2233 0444",
    "hours1": "Mon-Sun 11am-12pm",
    "hours2": "",
    "hours3": "",
    "featured": "",
    "features": ""
  },
  {
    "id": "3",
    "name": "Sukkubhai Biriyani Multi-Cuisine Restaurant A/C",
    "lat": "13.000537",
    "lng": "80.200698",
    "category": "Restaurant",
    "address": "14,Railway Station Road",
    "address2": "near Saint Anthony's church, Alandur",
    "city": "Chennai",
    "state": "Tamil Nadu",
    "postal": "600016",
    "phone": "044 2233 0444",
    "hours1": "Mon-Sun 11am-5am",
    "hours2": "",
    "hours3": "",
    "featured": "",
    "features": ""
  },
  {
    "id": "4",
    "name": "Sukkubhai Biriyani Multi-Cuisine Restaurant A/C",
    "lat": "13.055490",
    "lng": "80.255600",
    "category": "Restaurant",
    "address": "208,Anna Saalai,Thousand lights",
    "address2": "",
    "city": "Chennai",
    "state": "Tamil Nadu",
    "postal": "600006",
    "phone": "044 2233 0444",
    "hours1": "Mon-Sun 11am-12pm",
    "hours2": "",
    "hours3": "",
    "featured": "",
    "features": ""
  }
]
